{title:'SARATH PREMATHILAKA P.A - AL001',lat:7.304574, lng: 80.163661,description:'SARATH PREMATHILAKA P.A - AL001 - Z_SUSANTHA- ALAWWA'}, {title:'JAYANTHA WIJESINGHE K.D - AL002',lat:7.275415, lng: 80.203033,description:'JAYANTHA WIJESINGHE K.D - AL002 - Z_SUSANTHA- ALAWWA'}, {title:'SERAM W.A.L.N. - AL003',lat:7.336898, lng: 80.145581,description:'SERAM W.A.L.N. - AL003 - CHAMINDA PUSHPAKUMARA  - [0777415017]- ALAWWA'}, {title:'CHAMINDA CHATHURANGA S.D - AL004',lat:7.308464, lng: 80.156387,description:'CHAMINDA CHATHURANGA S.D - AL004 - Z_SUSANTHA- ALAWWA'}, {title:'AJITH WEERASINGHE K. - AL007',lat:7.274853, lng: 80.204224,description:'AJITH WEERASINGHE K. - AL007 - Z_SUSANTHA- ALAWWA'}, {title:'GAYAN ERANDIKA EDIRISINGHE E.A - AL008',lat:7.287991, lng: 80.183391,description:'GAYAN ERANDIKA EDIRISINGHE E.A - AL008 - Z_SUSANTHA- ALAWWA'}, {title:'JAYAKODI D.F.A - AL009',lat:7.321286, lng: 80.104098,description:'JAYAKODI D.F.A - AL009 - CHAMINDA PUSHPAKUMARA  - [0777415017]- ALAWWA'}, {title:'CHANDRA RATHNAYAKE R.M - AL011',lat:7.284034, lng: 80.212085,description:'CHANDRA RATHNAYAKE R.M - AL011 - Z_SUSANTHA- ALAWWA'}, {title:'CHANDRA RATHNAYAKE R.M - AL011',lat:7.57942, lng: 79.990304,description:'CHANDRA RATHNAYAKE R.M - AL011 - Z_SUSANTHA- ALAWWA'}, {title:'CHANDRALATHA J.M - AL012',lat:7.303571, lng: 80.075315,description:'CHANDRALATHA J.M - AL012 - WATHSALA T.M.N. - [0777215791]- ALAWWA'}, {title:'DEEPAL THUSHITHA WIJERATHNA S.M - AL013',lat:7.336615, lng: 80.19206,description:'DEEPAL THUSHITHA WIJERATHNA S.M - AL013 - Z_SUSANTHA- ALAWWA'}, {title:'AMARASINGHA S.A.A - AL014',lat:7.342198, lng: 80.125555,description:'AMARASINGHA S.A.A - AL014 - CHAMINDA PUSHPAKUMARA  - [0777415017]- ALAWWA'}, {title:'WICKRAMASINGHA S.A - AL015',lat:7.297543, lng: 80.2166,description:'WICKRAMASINGHA S.A - AL015 - Z_SUSANTHA- ALAWWA'}, {title:'EMALIN NONA S.A - AL016',lat:7.36881, lng: 80.128973,description:'EMALIN NONA S.A - AL016 - WATHSALA T.M.N. - [0777215791]- ALAWWA'}, {title:'SUGATHLAL JAYAKODY J.M.A - AL017',lat:7.303645, lng: 80.148986,description:'SUGATHLAL JAYAKODY J.M.A - AL017 - Z_SUSANTHA- ALAWWA'}, {title:'ERICK WICKRAMASINGHE H.A - AL018',lat:7.312162, lng: 80.265303,description:'ERICK WICKRAMASINGHE H.A - AL018 - Z_SUSANTHA- ALAWWA'}, {title:'WIMAL KARUNATHILAKA M.P - AL020',lat:7.267533, lng: 80.242981,description:'WIMAL KARUNATHILAKA M.P - AL020 - Z_SUSANTHA- ALAWWA'}, {title:'PREMATHILAKA DE SILVA K.M - AL022',lat:7.211055, lng: 80.188683,description:'PREMATHILAKA DE SILVA K.M - AL022 - Z_SUSANTHA- ALAWWA'}, {title:'SIRISENA R.M. - AP003',lat:7.92146, lng: 80.188606,description:'SIRISENA R.M. - AP003 - KUMARA KARUNARATHNA - [0777215673]- AMBANPOLA'}, {title:'SISIRA JAYAPALA S.M - AP007',lat:7.916558, lng: 80.184196,description:'SISIRA JAYAPALA S.M - AP007 - KUMARA KARUNARATHNA - [0777215673]- AMBANPOLA'}, {title:'NIMAL SHANTHA R.M - AP008',lat:7.911048, lng: 80.17197,description:'NIMAL SHANTHA R.M - AP008 - KUMARA KARUNARATHNA - [0777215673]- AMBANPOLA'}, {title:'LALITH KUMARA K.H.M - AP012',lat:7.911203, lng: 80.171901,description:'LALITH KUMARA K.H.M - AP012 - KUMARA KARUNARATHNA - [0777215673]- AMBANPOLA'}, {title:'MAHINDA DISANAYAKA D.M - AP016',lat:7.899459, lng: 80.17623,description:'MAHINDA DISANAYAKA D.M - AP016 - KUMARA KARUNARATHNA - [0777215673]- AMBANPOLA'}, {title:'PRINKA ATHTHANAYAKE L.G.C.D - AP020',lat:7.773, lng: 80.28115,description:'PRINKA ATHTHANAYAKE L.G.C.D - AP020 - KUMARA KARUNARATHNA - [0777215673]- AMBANPOLA'}, {title:'DEEPTHI LANKA EKANAYAKA E.C.S.M.  - HP001',lat:7.582761, lng: 80.027751,description:'DEEPTHI LANKA EKANAYAKA E.C.S.M.  - HP001 - WATHSALA T.M.N. - [0777215791]- HETTIPOLA'}, {title:'SHAMA SANJEEWANI ATHPATHTHU A.H.B - HP002',lat:7.597613, lng: 80.076432,description:'SHAMA SANJEEWANI ATHPATHTHU A.H.B - HP002 - WATHSALA T.M.N. - [0777215791]- HETTIPOLA'}, {title:'CHAMARA NISHANTHA R.P - HP004',lat:7.547948, lng: 79.884247,description:'CHAMARA NISHANTHA R.P - HP004 - WATHSALA T.M.N. - [0777215791]- HETTIPOLA'}, {title:'PERERA E.M.R.S.D - HP009',lat:7.607297, lng: 80.060281,description:'PERERA E.M.R.S.D - HP009 - KUMARA KARUNARATHNA - [0777215673]- HETTIPOLA'}, {title:'KANCHANA PRIYANGANI A.D - HP013',lat:7.541798, lng: 79.894126,description:'KANCHANA PRIYANGANI A.D - HP013 - WATHSALA T.M.N. - [0777215791]- HETTIPOLA'}, {title:'WARNAPALA J.A. - HP015',lat:7.538102, lng: 79.892747,description:'WARNAPALA J.A. - HP015 - KUMARA KARUNARATHNA - [0777215673]- HETTIPOLA'}, {title:'FERNANDO M. - HP017',lat:7.546817, lng: 79.91586,description:'FERNANDO M. - HP017 - WATHSALA T.M.N. - [0777215791]- HETTIPOLA'}, {title:'TERACE NIRMALA YAYANTHI FERNANDO R. - HP018',lat:7.554311, lng: 79.925027,description:'TERACE NIRMALA YAYANTHI FERNANDO R. - HP018 - WATHSALA T.M.N. - [0777215791]- HETTIPOLA'}, {title:'RAJITH OSANDA BUDHDIKA R - HP019',lat:7.550035, lng: 79.886602,description:'RAJITH OSANDA BUDHDIKA R - HP019 - WATHSALA T.M.N. - [0777215791]- HETTIPOLA'}, {title:'SUJITH PRASANTHA PERERA J.A.S - HP020',lat:7.539649, lng: 79.856494,description:'SUJITH PRASANTHA PERERA J.A.S - HP020 - WATHSALA T.M.N. - [0777215791]- HETTIPOLA'}, {title:'RANJITH NISHANTHA R.P - HP024',lat:7.683145, lng: 80.029118,description:'RANJITH NISHANTHA R.P - HP024 - KUMARA KARUNARATHNA - [0777215673]- HETTIPOLA'}, {title:'BONIFAS P.S. - HP028',lat:7.554673, lng: 79.926814,description:'BONIFAS P.S. - HP028 - WATHSALA T.M.N. - [0777215791]- HETTIPOLA'}, {title:'RUWAN UPUL KUMARA R.P - HP036',lat:7.66902, lng: 80.042238,description:'RUWAN UPUL KUMARA R.P - HP036 - KUMARA KARUNARATHNA - [0777215673]- HETTIPOLA'}, {title:'SUGATH PUSHPAKUMARA K. - HP039',lat:7.449871, lng: 79.908183,description:'SUGATH PUSHPAKUMARA K. - HP039 - WATHSALA T.M.N. - [0777215791]- HETTIPOLA'}, {title:'JOSEPH FERNANDO P. - HP040',lat:7.531971, lng: 79.884835,description:'JOSEPH FERNANDO P. - HP040 - WATHSALA T.M.N. - [0777215791]- HETTIPOLA'}, {title:'JOSEPH FERNANDO P. - HP040',lat:7.539915, lng: 79.91064,description:'JOSEPH FERNANDO P. - HP040 - WATHSALA T.M.N. - [0777215791]- HETTIPOLA'}, {title:'THUSHITHA ROSHAN D.A. - HP043',lat:7.539574, lng: 79.885703,description:'THUSHITHA ROSHAN D.A. - HP043 - WATHSALA T.M.N. - [0777215791]- HETTIPOLA'}, {title:'PRADEEP THUSHARA RANDENI R.P - HP046',lat:7.543284, lng: 79.894057,description:'PRADEEP THUSHARA RANDENI R.P - HP046 - WATHSALA T.M.N. - [0777215791]- HETTIPOLA'}, {title:'SUJITH PRABATH JAYASINGHA J.A - HP047',lat:7.575117, lng: 80.023314,description:'SUJITH PRABATH JAYASINGHA J.A - HP047 - WATHSALA T.M.N. - [0777215791]- HETTIPOLA'}, {title:'SUJITH PRABATH JAYASINGHA J.A - HP047',lat:7.576736, lng: 80.022137,description:'SUJITH PRABATH JAYASINGHA J.A - HP047 - WATHSALA T.M.N. - [0777215791]- HETTIPOLA'}, {title:'CHANDRALATHA RANDUNU R.P - HP048',lat:7.533154, lng: 79.874826,description:'CHANDRALATHA RANDUNU R.P - HP048 - WATHSALA T.M.N. - [0777215791]- HETTIPOLA'}, {title:'PREMASIRI DISSANAYAKA D.M - HP050',lat:7.504587, lng: 79.911337,description:'PREMASIRI DISSANAYAKA D.M - HP050 - WATHSALA T.M.N. - [0777215791]- HETTIPOLA'}, {title:'MANJULA SARATH KUMARA WIJESINGHA W.M - HP052',lat:7.62709, lng: 80.058789,description:'MANJULA SARATH KUMARA WIJESINGHA W.M - HP052 - WATHSALA T.M.N. - [0777215791]- HETTIPOLA'}, {title:'MANJULA SARATH KUMARA WIJESINGHA W.M - HP052',lat:7.620569, lng: 80.051598,description:'MANJULA SARATH KUMARA WIJESINGHA W.M - HP052 - WATHSALA T.M.N. - [0777215791]- HETTIPOLA'}, {title:'ANUSHA SANDAMALI HERATH H.M - HP058',lat:7.58107, lng: 79.979013,description:'ANUSHA SANDAMALI HERATH H.M - HP058 - WATHSALA T.M.N. - [0777215791]- HETTIPOLA'}, {title:'MANJULA PADMALAL - HP060',lat:7.563466, lng: 79.993614,description:'MANJULA PADMALAL - HP060 - WATHSALA T.M.N. - [0777215791]- HETTIPOLA'}, {title:'MANJULA PADMALAL - HP060',lat:7.538712, lng: 79.893316,description:'MANJULA PADMALAL - HP060 - WATHSALA T.M.N. - [0777215791]- HETTIPOLA'}, {title:'MANJULA PADMALAL - HP060',lat:7.49659, lng: 79.85014,description:'MANJULA PADMALAL - HP060 - WATHSALA T.M.N. - [0777215791]- HETTIPOLA'}, {title:'HIMAL SRI DEWAPRIYA INDRASOMA M.A. - KG005',lat:7.332569, lng: 80.373415,description:'HIMAL SRI DEWAPRIYA INDRASOMA M.A. - KG005 - Z_SUSANTHA- KEGALL'}, {title:'RANJITH PREMARATHNE G.R.S. - KG006',lat:7.344181, lng: 80.407066,description:'RANJITH PREMARATHNE G.R.S. - KG006 - Z_SUSANTHA- KEGALL'}, {title:'AMARATHUNGA U.A - KG010',lat:7.35719, lng: 80.371438,description:'AMARATHUNGA U.A - KG010 - Z_SUSANTHA- KEGALL'}, {title:'SANJEEWA WIJERATHNA A.G - KG011',lat:7.332785, lng: 80.398995,description:'SANJEEWA WIJERATHNA A.G - KG011 - Z_SUSANTHA- KEGALL'}, {title:'ANULA KANTHI W.K - KG016',lat:7.272791, lng: 80.384967,description:'ANULA KANTHI W.K - KG016 - Z_SUSANTHA- KEGALL'}, {title:'RAVINDRA PUSHPAKUMARA R.D - KN002',lat:7.456472, lng: 80.422298,description:'RAVINDRA PUSHPAKUMARA R.D - KN002 - KUMARA KARUNARATHNA - [0777215673]- KURUNAGALA'}, {title:'LALITH CHANDANA H.M - KN003',lat:7.457382, lng: 80.378962,description:'LALITH CHANDANA H.M - KN003 - KUMARA KARUNARATHNA - [0777215673]- KURUNAGALA'}, {title:'LALITH CHANDANA H.M - KN003',lat:7.53185, lng: 80.424665,description:'LALITH CHANDANA H.M - KN003 - KUMARA KARUNARATHNA - [0777215673]- KURUNAGALA'}, {title:'AMUNUGAMA M.M.M.P.B.M. - KN004',lat:7.505514, lng: 80.404054,description:'AMUNUGAMA M.M.M.P.B.M. - KN004 - KUMARA KARUNARATHNA - [0777215673]- KURUNAGALA'}, {title:'JAYAWARDANA E.S.C. - KN006',lat:7.396916, lng: 80.376191,description:'JAYAWARDANA E.S.C. - KN006 - KUMARA KARUNARATHNA - [0777215673]- KURUNAGALA'}, {title:'CHANDRA KUMAR JAYATHUNGA K.D - KN008',lat:7.511665, lng: 80.277236,description:'CHANDRA KUMAR JAYATHUNGA K.D - KN008 - KUMARA KARUNARATHNA - [0777215673]- KURUNAGALA'}, {title:'CHANDRIKA ILANGASINGHA - KN009',lat:7.428172, lng: 80.386192,description:'CHANDRIKA ILANGASINGHA - KN009 - KUMARA KARUNARATHNA - [0777215673]- KURUNAGALA'}, {title:'L.D.K.L.DE SILVA - KN010',lat:7.643522, lng: 80.380086,description:'L.D.K.L.DE SILVA - KN010 - KUMARA KARUNARATHNA - [0777215673]- KURUNAGALA'}, {title:'ARAVINDA SUDESH JAYATHILAKA - KN016',lat:7.516861, lng: 80.276498,description:'ARAVINDA SUDESH JAYATHILAKA - KN016 - KUMARA KARUNARATHNA - [0777215673]- KURUNAGALA'}, {title:'DILEEPA NAWARATHNA - KN018',lat:7.522868, lng: 80.29268,description:'DILEEPA NAWARATHNA - KN018 - KUMARA KARUNARATHNA - [0777215673]- KURUNAGALA'}, {title:'BANDULA NISHSHANKA N.P - KP001',lat:7.433718, lng: 80.096261,description:'BANDULA NISHSHANKA N.P - KP001 - WATHSALA T.M.N. - [0777215791]- KULIYAPITIYA'}, {title:'CHAMPA MALANI KARUNARATHNE S.M - KP005',lat:7.476852, lng: 80.145489,description:'CHAMPA MALANI KARUNARATHNE S.M - KP005 - WATHSALA T.M.N. - [0777215791]- KULIYAPITIYA'}, {title:'SARACHCHANDRA L.U.A - KP007',lat:7.494303, lng: 79.963657,description:'SARACHCHANDRA L.U.A - KP007 - WATHSALA T.M.N. - [0777215791]- KULIYAPITIYA'}, {title:'NERANJALA DAMAYANTHI ABESINGHA H.M - KP008',lat:7.344519, lng: 80.141922,description:'NERANJALA DAMAYANTHI ABESINGHA H.M - KP008 - WATHSALA T.M.N. - [0777215791]- KULIYAPITIYA'}, {title:'SISIRA KUMARA - KW001',lat:7.117957, lng: 80.183381,description:'SISIRA KUMARA - KW001 - Z_SUSANTHA- KIRINDIWELA'}, {title:'SISIRA KUMARA - KW001',lat:6.961383, lng: 80.066632,description:'SISIRA KUMARA - KW001 - Z_SUSANTHA- KIRINDIWELA'}, {title:'AJITH PUSHPAKUMARA WEERASINGHE W. - KW003',lat:7.042298, lng: 80.166641,description:'AJITH PUSHPAKUMARA WEERASINGHE W. - KW003 - Z_SUSANTHA- KIRINDIWELA'}, {title:'SUMITH KUMARA N.R.A - KW005',lat:7.039304, lng: 80.098127,description:'SUMITH KUMARA N.R.A - KW005 - Z_SUSANTHA- KIRINDIWELA'}, {title:'BANDARA W.B.S.W. - NK002',lat:7.810034, lng: 80.097577,description:'BANDARA W.B.S.W. - NK002 - KUMARA KARUNARATHNA - [0777215673]- NIKAWARATIYA'}, {title:'SRIMALI WEERASINGHE S.A - NK005',lat:7.708605, lng: 80.136256,description:'SRIMALI WEERASINGHE S.A - NK005 - KUMARA KARUNARATHNA - [0777215673]- NIKAWARATIYA'}, {title:'RANBANDA H.M - NK013',lat:7.821461, lng: 80.109767,description:'RANBANDA H.M - NK013 - KUMARA KARUNARATHNA - [0777215673]- NIKAWARATIYA'}, {title:'ERANDI SHASHIKA MADAGODA M.D. - NM001',lat:7.422868, lng: 80.191749,description:'ERANDI SHASHIKA MADAGODA M.D. - NM001 - CHAMINDA PUSHPAKUMARA  - [0777415017]- NARAMMALA'}, {title:'SARATH SOMATHILAKA M. - NM003',lat:7.372333, lng: 80.142592,description:'SARATH SOMATHILAKA M. - NM003 - CHAMINDA PUSHPAKUMARA  - [0777415017]- NARAMMALA'}, {title:'CHARLS EDIRISINGHE - NM004',lat:7.433876, lng: 80.162026,description:'CHARLS EDIRISINGHE - NM004 - WATHSALA T.M.N. - [0777215791]- NARAMMALA'}, {title:'NADEETH FERNANDO B. - NM006',lat:7.425076, lng: 80.191333,description:'NADEETH FERNANDO B. - NM006 - CHAMINDA PUSHPAKUMARA  - [0777415017]- NARAMMALA'}, {title:'NANDANI  MAHINDARATHNE W. - NM007',lat:7.355195, lng: 80.160979,description:'NANDANI  MAHINDARATHNE W. - NM007 - CHAMINDA PUSHPAKUMARA  - [0777415017]- NARAMMALA'}, {title:'AJITH GUNAWARDANA R.A - NM010',lat:7.36551, lng: 80.182361,description:'AJITH GUNAWARDANA R.A - NM010 - CHAMINDA PUSHPAKUMARA  - [0777415017]- NARAMMALA'}, {title:'NIMAL GUNARATHNE R.P - PN001',lat:7.358275, lng: 80.015319,description:'NIMAL GUNARATHNE R.P - PN001 - WATHSALA T.M.N. - [0777215791]- PANNALA'}, {title:'KALAWANA FARM - PN004',lat:7.156464, lng: 79.970292,description:'KALAWANA FARM - PN004 - CHAMINDA PUSHPAKUMARA  - [0777415017]- PANNALA'}, {title:'KANCHANA MADUSHIYA PERERA W.A. - PN008',lat:7.315554, lng: 79.943637,description:'KANCHANA MADUSHIYA PERERA W.A. - PN008 - WATHSALA T.M.N. - [0777215791]- PANNALA'}, {title:'NISHANTHA JAYALATH W. - PN009',lat:7.189876, lng: 79.98928,description:'NISHANTHA JAYALATH W. - PN009 - CHAMINDA PUSHPAKUMARA  - [0777415017]- PANNALA'}, {title:'DAMMIKA ROHANA WIJESINGHE W.B. - PN015',lat:7.213287, lng: 80.040538,description:'DAMMIKA ROHANA WIJESINGHE W.B. - PN015 - WATHSALA T.M.N. - [0777215791]- PANNALA'}, {title:'GANGA KUMUDUNI KALDERA H.P. - PN017',lat:7.27816, lng: 80.072833,description:'GANGA KUMUDUNI KALDERA H.P. - PN017 - WATHSALA T.M.N. - [0777215791]- PANNALA'}, {title:'RANASINGHE P.A - PN018',lat:7.29305, lng: 80.129068,description:'RANASINGHE P.A - PN018 - CHAMINDA PUSHPAKUMARA  - [0777415017]- PANNALA'}, {title:'GEETHA KUMUDUNI RATHNAYAKE V.P - PN022',lat:7.251202, lng: 80.174304,description:'GEETHA KUMUDUNI RATHNAYAKE V.P - PN022 - CHAMINDA PUSHPAKUMARA  - [0777415017]- PANNALA'}, {title:'SRIPALI PRIYANTHA KODISINGHE K.A - PN024',lat:7.288179, lng: 80.114759,description:'SRIPALI PRIYANTHA KODISINGHE K.A - PN024 - CHAMINDA PUSHPAKUMARA  - [0777415017]- PANNALA'}, {title:'CHANDRASIRI ABEYKON A.R - PN025',lat:7.150412, lng: 80.112411,description:'CHANDRASIRI ABEYKON A.R - PN025 - Z_SUSANTHA- PANNALA'}, {title:'CHANDANA KAMAL WEERASINGHE W.A - PN026',lat:7.280608, lng: 80.153461,description:'CHANDANA KAMAL WEERASINGHE W.A - PN026 - CHAMINDA PUSHPAKUMARA  - [0777415017]- PANNALA'}, {title:'LAKMAL HERATH R.M.R - PN028',lat:7.3437, lng: 79.988945,description:'LAKMAL HERATH R.M.R - PN028 - WATHSALA T.M.N. - [0777215791]- PANNALA'}, {title:'SAMAN KUMARA SENEVIRATHNA G.D. - PN029',lat:7.142817, lng: 80.028032,description:'SAMAN KUMARA SENEVIRATHNA G.D. - PN029 - CHAMINDA PUSHPAKUMARA  - [0777415017]- PANNALA'}, {title:'MIRIGAMA AIR FORCE CAMP  - PN030',lat:7.246631, lng: 80.091898,description:'MIRIGAMA AIR FORCE CAMP  - PN030 - CHAMINDA PUSHPAKUMARA  - [0777415017]- PANNALA'}, {title:'ARAVINDA RANAWAKA R.A.D - PN031',lat:7.259578, lng: 79.984396,description:'ARAVINDA RANAWAKA R.A.D - PN031 - CHAMINDA PUSHPAKUMARA  - [0777415017]- PANNALA'}, {title:'NILANGA PERERA K.P - PN032',lat:7.296085, lng: 79.944954,description:'NILANGA PERERA K.P - PN032 - WATHSALA T.M.N. - [0777215791]- PANNALA'}, {title:'WEERASIRIWARDANA D.D.A - PN033',lat:7.151841, lng: 80.11053,description:'WEERASIRIWARDANA D.D.A - PN033 - Z_SUSANTHA- PANNALA'}, {title:'THUSHARA SAMPATH K.P - PN034',lat:7.148636, lng: 80.047714,description:'THUSHARA SAMPATH K.P - PN034 - CHAMINDA PUSHPAKUMARA  - [0777415017]- PANNALA'}, {title:'LALITH NAYANANANDA W.A - PN036',lat:7.143364, lng: 80.041274,description:'LALITH NAYANANANDA W.A - PN036 - WATHSALA T.M.N. - [0777215791]- PANNALA'}, {title:'SUNETHRA KUMARI P.M - PN038',lat:7.294124, lng: 80.081379,description:'SUNETHRA KUMARI P.M - PN038 - CHAMINDA PUSHPAKUMARA  - [0777415017]- PANNALA'}, {title:'JAYANTHA LAL RANASINGHE  J.A - PN041',lat:7.292905, lng: 80.129259,description:'JAYANTHA LAL RANASINGHE  J.A - PN041 - CHAMINDA PUSHPAKUMARA  - [0777415017]- PANNALA'}, {title:'LAHIRU THANUJAYA M - PN042',lat:7.202331, lng: 80.042288,description:'LAHIRU THANUJAYA M - PN042 - CHAMINDA PUSHPAKUMARA  - [0777415017]- PANNALA'}, {title:'AKILA CHAMARA DISSANAYAKA K.D - PN046',lat:7.061137, lng: 79.979695,description:'AKILA CHAMARA DISSANAYAKA K.D - PN046 - CHAMINDA PUSHPAKUMARA  - [0777415017]- PANNALA'}, {title:'PRABODA PERERA K - PN050',lat:7.29199, lng: 80.063617,description:'PRABODA PERERA K - PN050 - WATHSALA T.M.N. - [0777215791]- PANNALA'}, {title:'PREMADASA P.D - PW002',lat:7.3403, lng: 80.321683,description:'PREMADASA P.D - PW002 - Z_SUSANTHA- POLGAHAWELA'}, {title:'DIAS M.A.W.D. - PW001',lat:7.429031, lng: 80.272606,description:'DIAS M.A.W.D. - PW001 - WATHSALA T.M.N. - [0777215791]- POLGAHAWELA'}, {title:'GOTABAYA NARASINGHE N.K.B. - WP001',lat:7.661305, lng: 80.20252,description:'GOTABAYA NARASINGHE N.K.B. - WP001 - KUMARA KARUNARATHNA - [0777215673]- WARIYAPOLA'}, {title:'DARMAPPRIYA M.M.S.T - WP012',lat:7.598162, lng: 80.274538,description:'DARMAPPRIYA M.M.S.T - WP012 - KUMARA KARUNARATHNA - [0777215673]- WARIYAPOLA'}, {title:'SITHA JAYASINGHAE E.G - KN012',lat:7.395978, lng: 80.375248,description:'SITHA JAYASINGHAE E.G - KN012 - KUMARA KARUNARATHNA - [0777215673]- KURUNAGALA'}, {title:'GAMINI HERATH H.M - NM011',lat:7.437068, lng: 80.151891,description:'GAMINI HERATH H.M - NM011 - WATHSALA T.M.N. - [0777215791]- NARAMMALA'}, {title:'NIRNJALA UDAYANGANI JAYASINGHE K.A. - AL006',lat:7.343353, lng: 80.140071,description:'NIRNJALA UDAYANGANI JAYASINGHE K.A. - AL006 - CHAMINDA PUSHPAKUMARA  - [0777415017]- ALAWWA'}, {title:'SUNIL SHANTHA R.M - AP001',lat:7.883621, lng: 80.246461,description:'SUNIL SHANTHA R.M - AP001 - KUMARA KARUNARATHNA - [0777215673]- AMBANPOLA'}, {title:'KAMALA JAYANTHI HERATH MANIKE S.N.W.M - AP028',lat:7.919001, lng: 80.189716,description:'KAMALA JAYANTHI HERATH MANIKE S.N.W.M - AP028 - KUMARA KARUNARATHNA - [0777215673]- AMBANPOLA'}, {title:'KARUNARATHNE R.M. - AP004',lat:7.922781, lng: 80.18831,description:'KARUNARATHNE R.M. - AP004 - KUMARA KARUNARATHNA - [0777215673]- AMBANPOLA'}, {title:'CHANDRA RATHNAYAKA R.M - HP059',lat:7.579383, lng: 79.990328,description:'CHANDRA RATHNAYAKA R.M - HP059 - WATHSALA T.M.N. - [0777215791]- HETTIPOLA'}, {title:'PODINILAME H.M. - WP005',lat:7.656156, lng: 80.205296,description:'PODINILAME H.M. - WP005 - KUMARA KARUNARATHNA - [0777215673]- WARIYAPOLA'}, {title:'JAYATHILAKA R.M - AP021',lat:0, lng: 0,description:'JAYATHILAKA R.M - AP021 - WATHSALA T.M.N. - [0777215791]- AMBANPOLA'}, {title:'DINESH THARANGA D.M - PN010',lat:7.313658, lng: 79.943711,description:'DINESH THARANGA D.M - PN010 - WATHSALA T.M.N. - [0777215791]- PANNALA'}, {title:'KUMUDUNI MALLIKA G.A - PN027',lat:7.311566, lng: 79.943276,description:'KUMUDUNI MALLIKA G.A - PN027 - WATHSALA T.M.N. - [0777215791]- PANNALA'}, {title:'CHAMARI DILRUKSHI R.P - HP057',lat:7.53777, lng: 79.896633,description:'CHAMARI DILRUKSHI R.P - HP057 - WATHSALA T.M.N. - [0777215791]- HETTIPOLA'}, {title:'NIROSHA WICKRAMAARACHCHI W.A - HP053',lat:7.666753, lng: 79.992833,description:'NIROSHA WICKRAMAARACHCHI W.A - HP053 - KUMARA KARUNARATHNA - [0777215673]- HETTIPOLA'}, {title:'IROSHANI LUSILDA FERNANDO  - HP064',lat:7.548366, lng: 79.883838,description:'IROSHANI LUSILDA FERNANDO  - HP064 - WATHSALA T.M.N. - [0777215791]- HETTIPOLA'}, {title:'LAHIRU NUWAN KULASEKARA - KN017',lat:7.502388, lng: 80.283788,description:'LAHIRU NUWAN KULASEKARA - KN017 - KUMARA KARUNARATHNA - [0777215673]- KURUNAGALA'}, {title:'GANESH NANDITHA S.M - KN014',lat:7.497755, lng: 80.287186,description:'GANESH NANDITHA S.M - KN014 - KUMARA KARUNARATHNA - [0777215673]- KURUNAGALA'}, {title:'SURAJ LENAD JANS - KN013',lat:7.442993, lng: 80.336681,description:'SURAJ LENAD JANS - KN013 - KUMARA KARUNARATHNA - [0777215673]- KURUNAGALA'}, {title:'KUMARATHUNGA B.H.S.G. - KN005',lat:7.475088, lng: 80.42188,description:'KUMARATHUNGA B.H.S.G. - KN005 - KUMARA KARUNARATHNA - [0777215673]- KURUNAGALA'}, {title:'SUSANTHA SUWARNATHILAKA R - KN015',lat:7.508893, lng: 80.287343,description:'SUSANTHA SUWARNATHILAKA R - KN015 - KUMARA KARUNARATHNA - [0777215673]- KURUNAGALA'}, {title:'CHANDRA KUMAR JAYATHUNGA K.D - KN008',lat:7.504778, lng: 80.28208,description:'CHANDRA KUMAR JAYATHUNGA K.D - KN008 - KUMARA KARUNARATHNA - [0777215673]- KURUNAGALA'}, {title:'CHANDRA KUMAR JAYATHUNGA K.D - KN008',lat:7.511605, lng: 80.277211,description:'CHANDRA KUMAR JAYATHUNGA K.D - KN008 - KUMARA KARUNARATHNA - [0777215673]- KURUNAGALA'}, {title:'JERAD ROHAN J.A.D - PN012',lat:7.338736, lng: 79.958415,description:'JERAD ROHAN J.A.D - PN012 - WATHSALA T.M.N. - [0777215791]- PANNALA'}, {title:'ARUNA SAMPATH DA SILVA H. - HP008',lat:7.52817, lng: 79.861338,description:'ARUNA SAMPATH DA SILVA H. - HP008 - WATHSALA T.M.N. - [0777215791]- HETTIPOLA'}, {title:'SURAJ FERNANDO M - KN011',lat:7.681996, lng: 80.408451,description:'SURAJ FERNANDO M - KN011 - KUMARA KARUNARATHNA - [0777215673]- KURUNAGALA'}, {title:'DEEPA SUBASHINI S. - PN011',lat:0, lng: 0,description:'DEEPA SUBASHINI S. - PN011 - CHAMINDA PUSHPAKUMARA  - [0777415017]- PANNALA'}, {title:'CHAMINDA PREMASIRI D.G - KP009',lat:0, lng: 0,description:'CHAMINDA PREMASIRI D.G - KP009 - WATHSALA T.M.N. - [0777215791]- KULIYAPITIYA'}, {title:'CHANDANA PUSHPAKANTHA A.A - PN037',lat:7.206698, lng: 80.054715,description:'CHANDANA PUSHPAKANTHA A.A - PN037 - CHAMINDA PUSHPAKUMARA  - [0777415017]- PANNALA'}, {title:'SUNIL BANDARA R.M - NK014',lat:7.769843, lng: 80.129586,description:'SUNIL BANDARA R.M - NK014 - KUMARA KARUNARATHNA - [0777215673]- NIKAWARATIYA'}, {title:'RATHNAYAKE W.M - NK015',lat:7.787881, lng: 80.106775,description:'RATHNAYAKE W.M - NK015 - KUMARA KARUNARATHNA - [0777215673]- NIKAWARATIYA'}, {title:'PREMARATHNE B.M - WP010',lat:7.610608, lng: 80.19777,description:'PREMARATHNE B.M - WP010 - KUMARA KARUNARATHNA - [0777215673]- WARIYAPOLA'}